{
"type": "FeatureCollection",
"name": "Health_Centers",
"crs": { "type": "name", "properties": { "name": "urn:ogc:def:crs:OGC:1.3:CRS84" } },
"features": [
{ "type": "Feature", "properties": { "objectid": 1, "name": "Maria de los Santos Health Center", "organization": "DVCH", "zip": 19133, "phone": "215-291-2500", "website": "http://dvch.org/locations/maria-de-los-santos-health-center/", "dental_phone": "215-291-2509", "full_address": "401 West Allegheny Ave" }, "geometry": { "type": "Point", "coordinates": [ -75.137491161448395, 39.999633703259903 ] } },
{ "type": "Feature", "properties": { "objectid": 2, "name": "Maria de los Santos Women's Health Center", "organization": "DVCH", "zip": 19133, "phone": "215-291-2500", "website": "http://dvch.org/locations/maria-de-los-santos-womens-health-center/", "dental_phone": "N/A", "full_address": "400 West Allegheny Ave, Unit B-5" }, "geometry": { "type": "Point", "coordinates": [ -75.137455019559496, 39.999601254817499 ] } },
{ "type": "Feature", "properties": { "objectid": 3, "name": "Parkview OB/Gyn & Podiatry Services", "organization": "DVCH", "zip": 19124, "phone": "215-537-7695", "website": "http://dvch.org/locations/parkview-health-center/", "dental_phone": "N/A", "full_address": "841 E. Hunting Park Avenue, 2nd Floor" }, "geometry": { "type": "Point", "coordinates": [ -75.110819592132799, 40.011925500122103 ] } },
{ "type": "Feature", "properties": { "objectid": 4, "name": "Fairmount Primary Care Center at Girard Medical Center", "organization": "DVCH", "zip": 19122, "phone": "215-827-8010", "website": "http://dvch.org/locations/fairmount-primary-care-center-at-girard-medical-center/", "dental_phone": "N/A", "full_address": "801 W. Girard Ave" }, "geometry": { "type": "Point", "coordinates": [ -75.149982686262106, 39.9705086764924 ] } },
{ "type": "Feature", "properties": { "objectid": 5, "name": "K&A", "organization": "Esperanza", "zip": 19134, "phone": "215-302-3600", "website": "http://esperanzahealth.com/wp/", "dental_phone": "215-302-3156", "full_address": "3156 Kensington Ave " }, "geometry": { "type": "Point", "coordinates": [ -75.114106199769793, 39.996113091769899 ] } },
{ "type": "Feature", "properties": { "objectid": 6, "name": "Esperanza Health Center  (Fifth Street)", "organization": "Esperanza", "zip": 19133, "phone": "215-302-3600", "website": "http://esperanzahealth.com/wp/", "dental_phone": "N/A", "full_address": "2490 North 5th Street " }, "geometry": { "type": "Point", "coordinates": [ -75.140917877805606, 39.988854372998802 ] } },
{ "type": "Feature", "properties": { "objectid": 7, "name": "Hunting Park", "organization": "Esperanza", "zip": 19140, "phone": "215-302-3600", "website": "http://esperanzahealth.com/wp/", "dental_phone": "N/A", "full_address": "4417 N. 6th Street" }, "geometry": { "type": "Point", "coordinates": [ -75.136948584587202, 40.018893421961998 ] } },
{ "type": "Feature", "properties": { "objectid": 8, "name": "The Health Annex", "organization": "FPCN", "zip": 19142, "phone": "215-727-4721", "website": "https://www.fpcn.com/health-annex/", "dental_phone": "215-727-4721", "full_address": "6120B Woodland Avenue" }, "geometry": { "type": "Point", "coordinates": [ -75.229736538309098, 39.928800320424699 ] } },
{ "type": "Feature", "properties": { "objectid": 9, "name": "11th Street Family Health Services", "organization": "FPCN", "zip": 19123, "phone": "215-769-1100", "website": "https://www.fpcn.com/stephen-and-sandra-sheller-11th-street-family-health-services-of-drexel-university/", "dental_phone": "215-769-1100", "full_address": "850 North 11th Street" }, "geometry": { "type": "Point", "coordinates": [ -75.154832047049098, 39.967750629344998 ] } },
{ "type": "Feature", "properties": { "objectid": 10, "name": "Abbotsford Falls  Family Practice and Counseling", "organization": "FPCN", "zip": 19144, "phone": "215-843-9720", "website": "https://www.fpcn.com/abbottsford-falls/", "dental_phone": "215-843-9720", "full_address": "4700 Wissahickon Ave, Building D" }, "geometry": { "type": "Point", "coordinates": [ -75.172178495066305, 40.017457307774798 ] } },
{ "type": "Feature", "properties": { "objectid": 11, "name": "Fast Family Care", "organization": "FPCN", "zip": 19129, "phone": "267-597-3610", "website": "https://www.fpcn.com/Fast-Family-Care/", "dental_phone": "N/A", "full_address": "2800 Fox Street, In Shoprite" }, "geometry": { "type": "Point", "coordinates": [ -75.175241960095903, 40.011195281265898 ] } },
{ "type": "Feature", "properties": { "objectid": 12, "name": "Annex West Health Center", "organization": "FPCN", "zip": 19104, "phone": "267-350-5150", "website": "https://www.fpcn.com/annex-west-health-center/", "dental_phone": "N/A", "full_address": "3901 Market Street, (40th and Filbert on Filbert Street)" }, "geometry": { "type": "Point", "coordinates": [ -75.199692044154304, 39.956892034215599 ] } },
{ "type": "Feature", "properties": { "objectid": 13, "name": "Woodland Avenue Health Center", "organization": "GPHA", "zip": 19143, "phone": "215-726-9807", "website": "http://www.gphainc.org/sitesList.asp", "dental_phone": "215-726-9807", "full_address": "5000 Woodland Avenue" }, "geometry": { "type": "Point", "coordinates": [ -75.213875336979299, 39.939959257126397 ] } },
{ "type": "Feature", "properties": { "objectid": 14, "name": "Southeast Health Center", "organization": "GPHA", "zip": 19147, "phone": "215-339-5100", "website": "http://www.gphainc.org/sitesList.asp", "dental_phone": "215-339-5100", "full_address": "800 Washington Avenue " }, "geometry": { "type": "Point", "coordinates": [ -75.156929532545007, 39.935944420023901 ] } },
{ "type": "Feature", "properties": { "objectid": 15, "name": "Chinatown Medical Services & Chinatown Dental Services", "organization": "GPHA", "zip": 19123, "phone": "215-627-8000", "website": "http://www.gphainc.org/sitesList.asp", "dental_phone": "215-627-8000", "full_address": "432 N. 6th Street" }, "geometry": { "type": "Point", "coordinates": [ -75.148592657294799, 39.959338591462199 ] } },
{ "type": "Feature", "properties": { "objectid": 16, "name": "4th Street Behavioral Healthcare", "organization": "GPHA", "zip": 19147, "phone": "215-339-1070", "website": "http://www.gphainc.org/sitesList.asp", "dental_phone": "N/A", "full_address": "1401 South 4th Street" }, "geometry": { "type": "Point", "coordinates": [ -75.151585022116194, 39.930776998849097 ] } },
{ "type": "Feature", "properties": { "objectid": 17, "name": "4th Street Medical Suite", "organization": "GPHA", "zip": 19147, "phone": "215-339-1079", "website": "http://www.gphainc.org/sitesList.asp", "dental_phone": "N/A", "full_address": "1401 South 4th Street" }, "geometry": { "type": "Point", "coordinates": [ -75.151585022116194, 39.930776998849097 ] } },
{ "type": "Feature", "properties": { "objectid": 18, "name": "Frankford Avenue Behavioral Healthcare Location", "organization": "GPHA", "zip": 19124, "phone": "215-831-9882", "website": "http://www.gphainc.org/sitesList.asp", "dental_phone": "N/A", "full_address": "4500-10 Frankford Avenue, 2nd Floor" }, "geometry": { "type": "Point", "coordinates": [ -75.086350322191805, 40.013902430757902 ] } },
{ "type": "Feature", "properties": { "objectid": 19, "name": "Frankford Avenue Health Center & Frankford Avenue Dental Center", "organization": "GPHA", "zip": 19124, "phone": "215-535-1990", "website": "http://www.gphainc.org/sitesList.asp", "dental_phone": "215-535-1990", "full_address": "4500-10 Frankford Avenue" }, "geometry": { "type": "Point", "coordinates": [ -75.086350322191805, 40.013902430757902 ] } },
{ "type": "Feature", "properties": { "objectid": 20, "name": "Greater Philadelphia Health Action, Inc. Dental and Behavorial Healthcare", "organization": "GPHA", "zip": 19143, "phone": "215-724-4700", "website": "http://www.gphainc.org/sitesList.asp", "dental_phone": "215-724-4700", "full_address": "5501 Woodland Avenue" }, "geometry": { "type": "Point", "coordinates": [ -75.220380578886605, 39.935411395921001 ] } },
{ "type": "Feature", "properties": { "objectid": 21, "name": "Snyder Avenue Dental Center", "organization": "GPHA", "zip": 19148, "phone": "215-334-4900", "website": "http://www.gphainc.org/sitesList.asp", "dental_phone": "215-334-4900", "full_address": "640 Snyder Avenue" }, "geometry": { "type": "Point", "coordinates": [ -75.157959362634998, 39.922856414067098 ] } },
{ "type": "Feature", "properties": { "objectid": 22, "name": "Hunting Park Health & Hunting Park Dental Center ", "organization": "GPHA", "zip": 19140, "phone": "215-228-9300", "website": "http://www.gphainc.org/sitesList.asp", "dental_phone": "215-229-1390", "full_address": "1999 W. Hunting Park Avenue" }, "geometry": { "type": "Point", "coordinates": [ -75.160936501334106, 40.012676995604501 ] } },
{ "type": "Feature", "properties": { "objectid": 23, "name": "Carl Moore Health Center", "organization": "GPHA", "zip": 19146, "phone": "215-755-7700", "website": "http://www.gphainc.org/sitesList.asp", "dental_phone": "215-755-6866", "full_address": "1401 S. 31st Street" }, "geometry": { "type": "Point", "coordinates": [ -75.195432462317001, 39.936450177643898 ] } },
{ "type": "Feature", "properties": { "objectid": 24, "name": "GPHA Medical Suite at Temple University Kornberg School of Dentistry", "organization": "GPHA", "zip": 19140, "phone": "215-226-3789", "website": "http://www.gphainc.org/sitesList.asp", "dental_phone": "N/A", "full_address": "3223 N. Broad Street, Suite 136, 1st Floor" }, "geometry": { "type": "Point", "coordinates": [ -75.152765476956404, 40.002213749066499 ] } },
{ "type": "Feature", "properties": { "objectid": 25, "name": "Health Center 2", "organization": "PDPH", "zip": 19145, "phone": "215-685-1803", "website": "https://beta.phila.gov/services/mental-physical-health/city-health-centers/", "dental_phone": "215-685-1822", "full_address": "1700 S. Broad Street, Unit 201" }, "geometry": { "type": "Point", "coordinates": [ -75.168712473754397, 39.929249794407603 ] } },
{ "type": "Feature", "properties": { "objectid": 26, "name": "Health Center 3", "organization": "PDPH", "zip": 19104, "phone": "215-685-7504", "website": "https://beta.phila.gov/services/mental-physical-health/city-health-centers/", "dental_phone": "215-685-7506", "full_address": "555 S. 43rd Street" }, "geometry": { "type": "Point", "coordinates": [ -75.209140430154505, 39.948981672474702 ] } },
{ "type": "Feature", "properties": { "objectid": 27, "name": "Health Center 4", "organization": "PDPH", "zip": 19104, "phone": "215-685-7601", "website": "https://beta.phila.gov/services/mental-physical-health/city-health-centers/", "dental_phone": "215-685-7605", "full_address": "4400 Haverford Avenue" }, "geometry": { "type": "Point", "coordinates": [ -75.210638526008196, 39.962571896613802 ] } },
{ "type": "Feature", "properties": { "objectid": 28, "name": "Health Center 5", "organization": "PDPH", "zip": 19121, "phone": "215-685-2933", "website": "https://beta.phila.gov/services/mental-physical-health/city-health-centers/", "dental_phone": "215-685-2938", "full_address": "1900 N. 20th Street" }, "geometry": { "type": "Point", "coordinates": [ -75.166770773391704, 39.9829985124695 ] } },
{ "type": "Feature", "properties": { "objectid": 29, "name": "Health Center 6", "organization": "PDPH", "zip": 19123, "phone": "215-685-3803", "website": "https://beta.phila.gov/services/mental-physical-health/city-health-centers/", "dental_phone": "215-685-3816", "full_address": "321 W. Girard Avenue" }, "geometry": { "type": "Point", "coordinates": [ -75.142344438030804, 39.969885478362002 ] } },
{ "type": "Feature", "properties": { "objectid": 30, "name": "Health Center 9", "organization": "PDPH", "zip": 19144, "phone": "215-685-5701", "website": "https://beta.phila.gov/services/mental-physical-health/city-health-centers/", "dental_phone": "215-685-5738", "full_address": "131 E. Chelten Avenue" }, "geometry": { "type": "Point", "coordinates": [ -75.172771798886899, 40.037769224744601 ] } },
{ "type": "Feature", "properties": { "objectid": 31, "name": "Health Center 10", "organization": "PDPH", "zip": 19149, "phone": "215-685-0639", "website": "https://beta.phila.gov/services/mental-physical-health/city-health-centers/", "dental_phone": "215-685-0608", "full_address": "2230 Cottman Avenue" }, "geometry": { "type": "Point", "coordinates": [ -75.061344645276293, 40.0485586969561 ] } },
{ "type": "Feature", "properties": { "objectid": 32, "name": "Strawberry Mansion Health Center", "organization": "PDPH", "zip": 19132, "phone": "215-685-2401", "website": "https://beta.phila.gov/services/mental-physical-health/city-health-centers/", "dental_phone": "N/A", "full_address": "2840 W. Dauphin Street" }, "geometry": { "type": "Point", "coordinates": [ -75.179548361817893, 39.990925996386999 ] } },
{ "type": "Feature", "properties": { "objectid": 33, "name": "John Bell Health Center and Dental Clinic", "organization": "Philadelphia Fight", "zip": 19107, "phone": "267-725-0252", "website": "https://fight.org/programs/john-bell-center/", "dental_phone": "215-525-3046", "full_address": "1207 Chestnut Street, Floor 3" }, "geometry": { "type": "Point", "coordinates": [ -75.160503307458598, 39.95045531513 ] } },
{ "type": "Feature", "properties": { "objectid": 34, "name": "Jonathan Lax Treatment Center", "organization": "Philadelphia Fight", "zip": 19107, "phone": "215-790-1788", "website": "https://fight.org/programs/lax-center/", "dental_phone": "N/A ", "full_address": "1233 Locust Street, 4th Floor" }, "geometry": { "type": "Point", "coordinates": [ -75.162188991525198, 39.947934958998403 ] } },
{ "type": "Feature", "properties": { "objectid": 35, "name": "Congreso Health Center", "organization": "PHMC", "zip": 19133, "phone": "267-765-2272", "website": "http://www.phmchealthnetwork.org/2013-09-17-02-33-38", "dental_phone": "N/A", "full_address": "412 W. Lehigh Avenue" }, "geometry": { "type": "Point", "coordinates": [ -75.139279593151002, 39.991966899390903 ] } },
{ "type": "Feature", "properties": { "objectid": 36, "name": "PHMC Care Clinic", "organization": "PHMC", "zip": 19123, "phone": "215-825-8220", "website": "http://www.phmchealthnetwork.org/2013-09-17-02-32-24", "dental_phone": "N/A", "full_address": "1200 Callowhill Street, Suite 101" }, "geometry": { "type": "Point", "coordinates": [ -75.158362953674398, 39.959114352316199 ] } },
{ "type": "Feature", "properties": { "objectid": 37, "name": "Mary Howard Health Center", "organization": "PHMC", "zip": 19107, "phone": "215-592-4500", "website": "http://www.phmchealthnetwork.org/2013-09-17-02-33-00", "dental_phone": "N/A", "full_address": "125 S. 9th Street" }, "geometry": { "type": "Point", "coordinates": [ -75.155638731426095, 39.949047016135097 ] } },
{ "type": "Feature", "properties": { "objectid": 38, "name": "PHMC Health Connection", "organization": "PHMC", "zip": 19122, "phone": "215-765-6690", "website": "http://www.phmchealthnetwork.org/2013-09-17-02-31-51", "dental_phone": "N/A", "full_address": "1900 N. 9th Street" }, "geometry": { "type": "Point", "coordinates": [ -75.1487743614111, 39.9806758619482 ] } },
{ "type": "Feature", "properties": { "objectid": 39, "name": "Rising Sun Health Center", "organization": "PHMC", "zip": 19120, "phone": "215-279-9666", "website": "http://www.phmchealthnetwork.org/2013-09-17-02-29-05", "dental_phone": "N/A", "full_address": "5675 N. Front Street" }, "geometry": { "type": "Point", "coordinates": [ -75.121160707246503, 40.036369951921102 ] } },
{ "type": "Feature", "properties": { "objectid": 40, "name": "PHMC Health Center at Temple", "organization": "PHMC", "zip": 19140, "phone": "215-731-7144", "website": "http://www.phmchealthnetwork.org/phmc-health-center-at-temple", "dental_phone": "N/A", "full_address": "3401 N. Broad Street, Suite D101" }, "geometry": { "type": "Point", "coordinates": [ -75.152210886076801, 40.004741143014002 ] } },
{ "type": "Feature", "properties": { "objectid": 41, "name": "Stephen Klein Wellness Center", "organization": "Project HOME", "zip": 19121, "phone": "215-320-6187", "website": "https://projecthome.org/skwc", "dental_phone": "215-320-6187", "full_address": "2144 Cecil B. Moore Ave" }, "geometry": { "type": "Point", "coordinates": [ -75.170849398367594, 39.9803614455085 ] } },
{ "type": "Feature", "properties": { "objectid": 42, "name": "Pathways to Housing", "organization": "Project HOME", "zip": 19141, "phone": "215-390-1500", "website": "https://pathwaystohousingpa.org/", "dental_phone": "N/A", "full_address": "5201 Old York Rd, Suite 108" }, "geometry": { "type": "Point", "coordinates": [ -75.145641305066505, 40.032183893964103 ] } },
{ "type": "Feature", "properties": { "objectid": 43, "name": "The Hub of Hope", "organization": "Project HOME", "zip": 19102, "phone": "215-309-5225", "website": "https://projecthome.org/hubofhope", "dental_phone": null, "full_address": "16th Street and JKF Boulevard, Suburban Station, Concourse level" }, "geometry": { "type": "Point", "coordinates": [ -75.166619388853803, 39.953807223743098 ] } },
{ "type": "Feature", "properties": { "objectid": 44, "name": "Meade Family Health Center", "organization": "QCHC", "zip": 19121, "phone": "215-765-9501", "website": null, "dental_phone": "215-765-9501", "full_address": "1600 N. 18th Street" }, "geometry": { "type": "Point", "coordinates": [ -75.164591502384496, 39.978149235025597 ] } },
{ "type": "Feature", "properties": { "objectid": 45, "name": "QCHC Family Health Center", "organization": "QCHC", "zip": 19132, "phone": "215-227-0300", "website": null, "dental_phone": "215-227-0300", "full_address": "2501 West Lehigh Avenue" }, "geometry": { "type": "Point", "coordinates": [ -75.172402607881594, 39.996269176736398 ] } },
{ "type": "Feature", "properties": { "objectid": 46, "name": "Cooke Family Health Center", "organization": "QCHC", "zip": 19141, "phone": "215-457-6902", "website": null, "dental_phone": "215-457-6902", "full_address": "1300 West Louden Street" }, "geometry": { "type": "Point", "coordinates": [ -75.146029150495494, 40.025957848040399 ] } },
{ "type": "Feature", "properties": { "objectid": 47, "name": "Sayre Health Center", "organization": "Sayre-Penn", "zip": 19139, "phone": "215-474-4444", "website": "http://www.sayrehealth.org/", "dental_phone": "215-921-2388", "full_address": "5800 Walnut St" }, "geometry": { "type": "Point", "coordinates": [ -75.237512287445199, 39.958436286166801 ] } },
{ "type": "Feature", "properties": { "objectid": 48, "name": "Spectrum Community Health Center", "organization": "Spectrum", "zip": 19139, "phone": "215-471-2761", "website": "http://www.spectrumhs.org/", "dental_phone": "215-471-2761", "full_address": "5201 Haverford Ave" }, "geometry": { "type": "Point", "coordinates": [ -75.224611381046699, 39.9649267982373 ] } },
{ "type": "Feature", "properties": { "objectid": 49, "name": "Broad Street Health Center", "organization": "Spectrum", "zip": 19122, "phone": "215-471-2761", "website": "http://www.spectrumhs.org/", "dental_phone": "N/A", "full_address": "1415 North Broad Street, Suite 224" }, "geometry": { "type": "Point", "coordinates": [ -75.158710118480002, 39.974795596515598 ] } },
{ "type": "Feature", "properties": { "objectid": 50, "name": "Reed Street Health Center", "organization": "Spectrum", "zip": 19146, "phone": "215-471-2761", "website": "http://www.spectrumhs.org/", "dental_phone": "N/A", "full_address": "1325 S. 33rd Street, Floor 3" }, "geometry": { "type": "Point", "coordinates": [ -75.197902839770805, 39.937415616180303 ] } },
{ "type": "Feature", "properties": { "objectid": 51, "name": "Health Center 1", "organization": "PDPH", "zip": 19145, "phone": "215-685-6570", "website": "https://beta.phila.gov/services/mental-physical-health/city-health-centers/", "dental_phone": "N/A", "full_address": "1930 S. Broad St., 2nd Floor" }, "geometry": { "type": "Point", "coordinates": [ -75.169384836590396, 39.926440118093403 ] } },
{ "type": "Feature", "properties": { "objectid": 52, "name": "Covenant House Health Services", "organization": "Covenant", "zip": 19144, "phone": "215-844-0181", "website": null, "dental_phone": "N/A", "full_address": "251 East Bringhurst Street" }, "geometry": { "type": "Point", "coordinates": [ -75.164737917931305, 40.034466828005399 ] } },
{ "type": "Feature", "properties": { "objectid": 53, "name": "Mt. Pleasant Medical Center", "organization": "Covenant", "zip": 19150, "phone": "267-331-9832", "website": null, "dental_phone": "267-331-9832", "full_address": "8125 Stenton Avenue" }, "geometry": { "type": "Point", "coordinates": [ -75.178980019669794, 40.067320335027297 ] } },
{ "type": "Feature", "properties": { "objectid": 54, "name": "Fairmount Primary Care Center", "organization": "DVCH", "zip": 19130, "phone": "215-235-9600", "website": "http://dvch.org/locations/the-fairmount-primary-care-center/", "dental_phone": "215-684-5360", "full_address": "1412 Fairmount Avenue" }, "geometry": { "type": "Point", "coordinates": [ -75.161182508592205, 39.967074313994701 ] } },
{ "type": "Feature", "properties": { "objectid": 55, "name": "Fairmount Primary Care Center at Horizon House", "organization": "DVCH", "zip": 19104, "phone": "215-222-2466", "website": "http://dvch.org/locations/the-fairmount-primary-care-center-at-horizon-house/", "dental_phone": "N/A", "full_address": "120 S. 30th Street" }, "geometry": { "type": "Point", "coordinates": [ -75.183770571183501, 39.953300767260203 ] } }
]
}
